[
  {
    "id": "bbsr-kiit-campus-6-bhubaneswar",
    "name": "KIIT Campus 6",
    "subtitle": "KIIT Campus 6 (Main Campus), KIIT Road, North Zone, Bhubaneswar Municipal Corporation, Bhubaneswar (M.Corp.), Khordha, Odisha, 751024, India",
    "city": "Bhubaneswar",
    "latitude": 20.3530675,
    "longitude": 85.8201467,
    "source": "nominatim"
  },
  {
    "id": "bbsr-infocity-road-bhubaneswar",
    "name": "Infocity Road",
    "subtitle": "Infocity Road, Ward 1, North Zone, Bhubaneswar Municipal Corporation, Bhubaneswar (M.Corp.), Khordha, Odisha, 751021, India",
    "city": "Bhubaneswar",
    "latitude": 20.3428251,
    "longitude": 85.8063721,
    "source": "nominatim"
  },
  {
    "id": "bbsr-master-canteen-bhubaneswar",
    "name": "Master Canteen",
    "subtitle": "Relience Super, Master Canteen, Chandrama Complex Lane, Ward 41, Bhubaneswar, Bhubaneswar Municipal Corporation, Bhubaneswar (M.Corp.), Khordha, Odisha, 751000, India",
    "city": "Bhubaneswar",
    "latitude": 20.2681216,
    "longitude": 85.8437854,
    "source": "nominatim"
  },
  {
    "id": "bbsr-jaydev-vihar-bhubaneswar",
    "name": "Jaydev Vihar",
    "subtitle": "Jaydev Vihar Flyover, Ward 12, North Zone, Bhubaneswar Municipal Corporation, Bhubaneswar (M.Corp.), Khordha, Odisha, 751013, India",
    "city": "Bhubaneswar",
    "latitude": 20.2962317,
    "longitude": 85.8264588,
    "source": "nominatim"
  },
  {
    "id": "bbsr-kalinga-stadium-bhubaneswar",
    "name": "Kalinga Stadium",
    "subtitle": "Kalinga Stadium, Akhandalamani Temple road, Ward 37, South West Zone, Bhubaneswar Municipal Corporation, Bhubaneswar (M.Corp.), Khordha, Odisha, 751001, India",
    "city": "Bhubaneswar",
    "latitude": 20.2903875,
    "longitude": 85.8244174,
    "source": "nominatim"
  },
  {
    "id": "bbsr-bmc-bhawani-mall-bhubaneswar",
    "name": "BMC Bhawani Mall",
    "subtitle": "BMC Bhawani Mall, Saheed nagar main road, Ward 30, South East Zone, Bhubaneswar Municipal Corporation, Bhubaneswar (M.Corp.), Khordha, Odisha, 751007, India",
    "city": "Bhubaneswar",
    "latitude": 20.2866465,
    "longitude": 85.8472159,
    "source": "nominatim"
  },
  {
    "id": "bbsr-forum-mart-bhubaneswar",
    "name": "Forum Mart",
    "subtitle": "Forum Mart, Mother Teresa Marg, Ward 34, South East Zone, Bhubaneswar Municipal Corporation, Bhubaneswar (M.Corp.), Khordha, Odisha, 751006, India",
    "city": "Bhubaneswar",
    "latitude": 20.2784314,
    "longitude": 85.8454704,
    "source": "nominatim"
  },
  {
    "id": "bbsr-ekamra-haat-bhubaneswar",
    "name": "Ekamra Haat",
    "subtitle": "Ekamra Haat, Madhusudan Marg, Unit-3, Ward 35, South East Zone, Bhubaneswar Municipal Corporation, Bhubaneswar (M.Corp.), Khordha, Odisha, 751000, India",
    "city": "Bhubaneswar",
    "latitude": 20.2771118,
    "longitude": 85.8402838,
    "source": "nominatim"
  }
]